"ID","Nombre de la Unidad Económica","Razón social","Código de la clase de actividad SCIAN","Nombre de clase de la actividad","Descripcion estrato personal ocupado","Tipo de vialidad","Nombre de la vialidad","Tipo de entre vialidad 1","Nombre de entre vialidad 1","Tipo de entre vialidad 2","Nombre de entre vialidad 2","Tipo de entre vialidad 3","Nombre de entre vialidad 3","Número exterior o kilómetro","Letra exterior","Edificio","Edificio Piso","Número interior","Letra interior","Tipo de asentamiento humano","Nombre de asentamiento humano","Tipo centro comercial","Corredor industrial, centro comercial o mercado público","Número de local","Código Postal","Clave entidad","Entidad federativa","Clave municipio","Municipio","Clave localidad","Localidad","Área geoestadística básica ","Manzana","Número de teléfono","Correo electrónico","Sitio en Internet","Tipo de establecimiento","Latitud","Longitud","Fecha de incorporación al DENUE"
"53818","ADMINISTRACION PORTUARIA INTEGRAL DE ENSENADA","ADMINISTRACIÓN PORTUARIA INTEGRAL DE ENSENADA SA DE CV","488310","Administración de puertos y muelles","51 a 100 personas","CALLE","TENIENTE AZUETA","CALLE","NINGUNO","CARRETERA","ENSENADA-TIJUANA","CARRETERA","ENSENADA-TIJUANA","110",,,,,,"ZONA FEDERAL","RECINTO PORTUARIO",,,,"22800","02","BAJA CALIFORNIA","001","Ensenada","0001","Ensenada","0632","009",,"SGFINANZAS@PUERTOENSENADA.COM.MX","WWW.PUERTOENSENADA.COM.MX","Fijo","31.85658216","-116.63496016","2010-07"
"93363","CAPITANIA DEL PUERTO","SECRETARIA DE COMUNICACIONES Y TRANSPORTES ","488310","Administración de puertos y muelles","11 a 30 personas","CALLE","TENIENTE AZUETA","CALLE","ENSENADA-TIJUANA","CARRETERA","ENSENADA-TIJUANA","CARRETERA","ENSENADA-TIJUANA","100",,,,"0",,"COLONIA","ZONA CENTRO",,,,"22800","02","BAJA CALIFORNIA","001","Ensenada","0001","Ensenada","0628","051",,"SGFINANZAS@COM.MX",,"Fijo","31.85969776","-116.63223647","2014-12"
"95404","ENSENADA CRUISEPORT VILLAGE","ENSENADA CRUISEPORT VILLAGE SA DE CV","488310","Administración de puertos y muelles","31 a 50 personas","BOULEVARD","COSTERO","AVENIDA","CASTILLO","CALLE","CLUB ROTARIO","ANDADOR","NINGUNO","0","SN",,,"0",,"COLONIA","ZONA CENTRO",,,,,"02","BAJA CALIFORNIA","001","Ensenada","0001","Ensenada","0632","009",,,,"Fijo","31.86115875","-116.63050471","2014-12"
"6740531","ENSENADA INTERNACIONAL TERMINAL","ENSENADA INTERNATIONAL TERMINAL SA DE CV","488320","Servicios de carga y descarga para el transporte por agua","251 y más personas","BOULEVARD","TENIENTE AZUETA","ANDADOR","NINGUNO","ANDADOR","SIN REFERENCIA","ANDADOR","NINGUNO","224",,,,"0",,"COLONIA","ZONA CENTRO INTERIOR RECINTO PORTUARIO",,,,"22800","02","BAJA CALIFORNIA","001","Ensenada","0001","Ensenada","0632","009",,,,"Fijo","31.85733954","-116.6341719","2016-10"
"8558484","MARINA PUERTO SALINA","SERVINAUTI OPERADORA SA DE CV","488310","Administración de puertos y muelles","6 a 10 personas","CALLE","NINGUNO","BOULEVARD","PUERTO SALINA","CALLE","PANTANO","BOULEVARD","PUERTO SALINA","5","CL",,,,,"PUERTO","LA SALINA",,,,"22765","02","BAJA CALIFORNIA","001","Ensenada","2157","Puerto Salina","6237","003",,"PAUL@MARINAPUERTOSALINA.COM","WWW.MARINAPUERTOSALINA.COM.MX","Fijo","32.05705502","-116.87870749","2019-11"
"7138809","SERVICIOS DE CARGA Y DESCARGA PARA EL TRANSPORTE POR AGUA",,"488320","Servicios de carga y descarga para el transporte por agua","11 a 30 personas","AVENIDA","LAS TORRES","PRIVADA","PERSEO","CALLE","CALLE EL SAUCE","CALZADA","PRINCIPAL","10043",,,,"0",,"COLONIA","HOROSCO",,,,"22230","02","BAJA CALIFORNIA","004","Tijuana","0001","Tijuana","5673","027",,"INFO@GRUASRYA.COM",,"Fijo","32.46020614","-116.89451424","2019-11"
"6770186","SERVICIOS PORTUARIOS","SERVICIOS PORTUARIOS SA DE CV","488310","Administración de puertos y muelles","51 a 100 personas","CALLE","NINGUNO","CALLE","PRIMERA","CALLE","SIN REFERENCIA","CALLE","APARTADO POSTAL 125","0","SN",,,,,"PUEBLO","EL SAUZAL",,,,,"02","BAJA CALIFORNIA","001","Ensenada","0247","El Sauzal de Rodríguez","7466","002",,,,"Fijo","31.89615119","-116.69983438","2016-10"
"8332568","ADMINISTRACIÓN PORTUARIA INTEGRAL DE BAJA CALIFORNIA SUR","ADMINISTRACION PORTUARIA INTEGRAL DE BAJA CALIFORNIA SUR SA DE CV","488310","Administración de puertos y muelles","11 a 30 personas","CALLE","PASEO ADOLFO LOPEZ MATEOS","CALLE","ATANASIO CARRILLO","CALLE","AGUA DULCE","CALLE","SIN REFERENCIA","0","SN",,,,,"COLONIA","CENTRO",,,,"23880","03","BAJA CALIFORNIA SUR","009","Loreto","0001","Loreto","0090","037",,"FINANZAS@APIBCS.COM","WWW.APIBCS.COM.MX","Fijo","26.01767401","-111.34248162","2019-11"
"8332569","ADMINISTRACIÓN PORTUARIA INTEGRAL DE BAJA CALIFORNIA SUR","ADMINISTRACION PORTUARIA INTEGRAL DE BAJA CALIFORNIA SUR SA DE CV","488310","Administración de puertos y muelles","11 a 30 personas","CARRETERA","Ninguno","CALLE","Ninguno","CALLE","Ninguno","CALLE","SIN REFERENCIA","0","SN",,,"0",,"COLONIA","CENTRO",,,,"23920","03","BAJA CALIFORNIA SUR","002","Mulegé","0001","Santa Rosalía","3465","010",,"FINANZAS@APIBCS.COM","APIBCS.COM","Fijo","27.33625278","-112.26328243","2019-11"
"8332570","ADMINISTRACIÓN PORTUARIA INTEGRAL DE BAJA CALIFORNIA SUR","ADMINISTRACION PORTUARIA INTEGRAL DE BAJA CALIFORNIA SUR SA DE CV","488310","Administración de puertos y muelles","31 a 50 personas","CARRETERA","FEDERAL 22 TRAMO PUERTO SAN CARLOS CD CONSTITUCION KM 58","CALLE","SIN REFERENCIA","CALLE","SIN REFERENCIA","CALLE","SIN REFERENCIA","0","SN",,,"0",,"COLONIA","CENTRO",,,,"23740","03","BAJA CALIFORNIA SUR","001","Comondú","0280","Puerto San Carlos","2309","038",,"FINANZAS@APIBCS.COM","WWW.APIBCS.COM.MX","Fijo","24.78767977","-112.12019898","2019-11"
"6776998","ADMINISTRACIÓN PORTUARIA INTEGRAL DE BAJA CALIFORNIA SUR","ADMINISTRACION PORTUARIA INTEGRAL DE BAJA CALIFORNIA SUR SA DE CV","488310","Administración de puertos y muelles","101 a 250 personas","CALLE","NINGUNO","CALLE","SIN REFERENCIA","CALLE","NINGUNO","CALLE","NINGUNO","0","SN",,,,,"PUERTO","COMERCIAL DE PICHILINGUE",,,,"23010","03","BAJA CALIFORNIA SUR","003","La Paz","1534","Puerto de Pichilingue","2411","010",,"MONSERRATH@APIBCS.COM","APIBCS.COM","Fijo","24.27609736","-110.32747647","2017-03"
"185430","ADMINISTRACION PORTUARIA INTEGRAL DE BCS","ADMINISTRACION PORTUARIA INTEGRAL DE BCS ","488310","Administración de puertos y muelles","11 a 30 personas","CALLE","NINGUNO","CALLE","TRANSPENINSULAR","CALLE","TRANSPENINSULAR","OTRO (ESPECIFIQUE)","POTRERO",,"SN","EDIFICIO SIN NOMBRE","PISO 1",,,"COLONIA","MESA MEXICO",,,,"23290","03","BAJA CALIFORNIA SUR","002","Mulegé","0001","Santa Rosalía","3465","010","6151520622","APIBCS@PRODIGY.NET.MX","APIBCS.COM","Fijo","27.33699354","-112.26425963","2010-07"
"178200","ADMINISTRACIÓN PORTUARIA INTEGRAL DE CABO SAN LUCAS","FONATUR TREN MAYA SA DE CV","488310","Administración de puertos y muelles","51 a 100 personas","BOULEVARD","PASEO DE LA MARINA","CALLE","NINGUNO","CALLE","NINGUNO","CALLE","NINGUNO","853",,,,,,"COLONIA","MARINA",,,,"23450","03","BAJA CALIFORNIA SUR","008","Los Cabos","0054","Cabo San Lucas","0356","076",,,"WWW.FONATUROPERADORAPORTUARIA.GOB.MX","Fijo","22.879119","-109.909129","2014-12"
"185431","ADMINSTRACION PORTUARIA INTEGRAL DE BCS","GOBIERNO ","488310","Administración de puertos y muelles","11 a 30 personas","CALLE","NINGUNO","CALLEJON","NINGUNO","OTRO (ESPECIFIQUE)","ESTERO","OTRO (ESPECIFIQUE)","POTRERO",,"SN",,,,,"COLONIA","CENTRO",,,,"23740","03","BAJA CALIFORNIA SUR","001","Comondú","0280","Puerto San Carlos","2309","038",,"APIBCS@PRODIGY.NET.MX","APIBCS.COM","Fijo","24.79176297","-112.11472331","2010-07"
"9343232","API BCS","ADMINISTRACION PORTUARIA INTEGRAL DE BAJA CALIFORNIA SUR SA DE CV","488310","Administración de puertos y muelles","101 a 250 personas","OTRO (ESPECIFIQUE)","AVENIDA PICHILINGUE","OTRO (ESPECIFIQUE)","MONTE","OTRO (ESPECIFIQUE)","MONTE","OTRO (ESPECIFIQUE)","MANZANA O EDIFICACIÓN CONTIGUA","0","SN","EDIFICIO SIN NOMBRE",,,,"PUERTO","PICHILINGUE",,"PUER","0",,"03","BAJA CALIFORNIA SUR","003","La Paz","1534","Puerto de Pichilingue","2411","015",,"DIRECCION@APIBCS.COM","APIBCS.COM","Fijo","24.26524025","-110.33303827","2021-05"
"212383","ADMINISTRACIÓN PORTUARIA INTEGRAL","ADMINISTRACIÓN PORTUARIA INTEGRAL DE CAMPECHE ","488310","Administración de puertos y muelles","11 a 30 personas","CALLE","20","AVENIDA","DOS PONIENTE","CALLE","NINGUNO","CALLE","CENTRAL PONIENTE","0","SN",,,"0",,"LOCALIDAD","UNIDAD PESQUERA",,,,"24500","04","CAMPECHE","002","Campeche","0087","Lerma","2315","007","9818120816","APICAMDIRECCIONGENERAL@HOTMAIL.COM","WWW.PUERTOSDECAMPECHE.COM.MX","Fijo","19.80934068","-90.59657493","2014-12"
"221649","ADMINISTRACION PORTUARIA INTEGRAL DE CAMPECHE SA DE CV","ADMINISTRACION PORTUARIA INTEGRAL DE CAMPECHE SA DE CV","488310","Administración de puertos y muelles","31 a 50 personas","CALLE","5 SUR","AVENIDA","ADOLFO LOPEZ MATEOS","AVENIDA","ORIENTE","CALLE","CUATRO SUR",,"SN",,,,,"COLONIA","PUERTO PESQUERO",,,,"24129","04","CAMPECHE","003","Carmen","0001","Ciudad del Carmen","1210","041","9383824007",,"WWW.PUERTOSDECAMPECHE.COM.MX","Fijo","18.65029852","-91.84003011","2010-07"
"6142998","APROVISIONAMIENTOS MARITIMOS Y PETROLEROS","APROVISIONAMIENTOS MARITIMOS Y PETROLEROS SA DE CV","488310","Administración de puertos y muelles","101 a 250 personas","AVENIDA","ORIENTE","CALLE","3 SUR","CALLE","CUATRO SUR","CALLE","CUATRO SUR","5",,"5",,"0",,"COLONIA","PUERTO PESQUERO",,,,,"04","CAMPECHE","003","Carmen","0001","Ciudad del Carmen","0049","006",,"CESAR.GONZALEZ@AMAPET.MX",,"Fijo","18.64672376","-91.82904195","2010-07"
"212388","CENTRO DE COMANDO DE INCIDENTES","ADMINISTRACION PORTUARIA INTEGRAL ","488310","Administración de puertos y muelles","6 a 10 personas","AVENIDA","UNO ORIENTE","CALLE","CENTRAL ORIENTE","CALLE","SIN REFERENCIA","CALLE","PUNTO DE ARRIBO",,"SN",,,,,"LOCALIDAD","UNIDAD PESQUERA",,,,"24500","04","CAMPECHE","002","Campeche","0087","Lerma","2315","019","9811252859",,,"Fijo","19.81175221","-90.59449932","2014-12"
"218899","CONSULTORÍA Y SERVICIOS PETROLEROS CSP","CONSULTORÍA Y SERVICIOS PETROLEROS SA DE CV","488320","Servicios de carga y descarga para el transporte por agua","51 a 100 personas","AVENIDA","CENTRAL","OTRO (ESPECIFIQUE)","NINGUNO","CALLE","1 SUR","OTRO (ESPECIFIQUE)","NINGUNO","1","K",,,"0",,"PUERTO","INDUSTRIAL PESQUERO",,,,"24129","04","CAMPECHE","003","Carmen","0001","Ciudad del Carmen","1210","035",,"JTC@CSPMEX.COM.MX","WWW.CSPMEX.COM.MX","Fijo","18.65124405","-91.84624578","2014-12"
"212404","FARO API","ADMINISTRACION PORTUARIA INTEGRAL DEL GOBIERNO DEL ESTADO DE CAMPECHE ","488310","Administración de puertos y muelles","6 a 10 personas","PRIVADA","NINGUNO","AVENIDA","ESCENICA","AVENIDA","ESCENICA","CALLE","CARRETERA CAMPECHE-LERMA",,"SN",,,,,"COLONIA","RESURGIMIENTO",,,,"24030","04","CAMPECHE","002","Campeche","0001","San Francisco de Campeche","0573","026","9811683741",,,"Fijo","19.81718541","-90.58292077","2014-12"
"195900","PLAYA BONITA","ADMINISTRACIÓN PORTUARIA INTEGRAL DE CAMPECHE SA DE CV","488310","Administración de puertos y muelles","251 y más personas","CARRETERA","NINGUNO","AVENIDA","PASEO DEL MAR","CALLE","PLAYA BONITA","OTRO (ESPECIFIQUE)","NINGUNO","180",,,,"0",,"COLONIA","KILA",,,,"24500","04","CAMPECHE","002","Campeche","0087","Lerma","2349","033",,"JORGE.MATOS@PUERTOSCAMPECHE.COM.MX","APICAMPECHE.COM.MX","Fijo","19.79394665","-90.62035272","2010-07"
"221655","PUERTO INDUSTRIAL PESQUERO DE CHAMPOTÓN","ADMINISTRACION PORTUARIA INTEGRAL DE CAMPECHE ","488310","Administración de puertos y muelles","31 a 50 personas","CALLE","NINGUNO","CALLE","3","CALLE","NINGUNO","CALLE","6",,"SN",,,,,"COLONIA","PARAISO",,,,"24400","04","CAMPECHE","004","Champotón","0001","Champotón","1025","006",,,,"Fijo","19.36124624","-90.72000373","2010-07"
"318678","ADMINISTRACION PORTUARIA INTEGRAL DE MANZANILLO SA DE CV","ADMINISTRACION PORTUARIA INTEGRAL DE MANZANILLO SA DE CV","488310","Administración de puertos y muelles","51 a 100 personas","AVENIDA","Teniente Azueta","CALLE","Ninguno","CALLE","Ninguno","ANDADOR","San Pedro","0","SN",,,"9",,"COLONIA","BUROCRATAS",,,,"28237","06","COLIMA","007","Manzanillo","0001","Manzanillo","0418","022","3143311400","GADMON@PUERTOMANZANILLO.COM.MX","WWW.PUERTOMANZANILLO.COM.MX","Fijo","19.05897855","-104.3031421","2012-06"
"331090","AGENCIA MEXICO","AGENCIA MEXICO SC","488320","Servicios de carga y descarga para el transporte por agua","6 a 10 personas","CALLE","LAZARO CARDENAS","CALLE","FELIPE AGUILAR","CALLE","SANTIAGO HERMOSILLO","CALLE","VÍCTOR MEDINA","28",,,,,,"COLONIA","TEPEIXTLES",,,,"28239","06","COLIMA","007","Manzanillo","0001","Manzanillo","0884","033",,"AMEXICOTRAFICOMZO@HOTMAIL.COM",,"Fijo","19.06755987","-104.28565254","2010-07"
"6862297","COMERCIALIZADORA LA JUNTA","COMERCIALIZADORA LA JUNTA SA DE CV","488320","Servicios de carga y descarga para el transporte por agua","251 y más personas","OTRO (ESPECIFIQUE)","LICENCIADO MIGUEL DE LA MADRID HURTADO","PRIVADA","5","BOULEVARD","4","OTRO (ESPECIFIQUE)","19","0","SN",,,"0",,"COLONIA","FONDEPORT",,,,"28250","06","COLIMA","007","Manzanillo","0001","Manzanillo","0704","001",,"EDELRIO@CLJ.COM.MX",,"Fijo","19.06207963","-104.29007778","2019-04"
"318569","COMPAÑÍA TERMINAL DE MANZANILLO SA DE CV","COMPAÑÍA TERMINAL DE MANZANILLO SA DE CV","488310","Administración de puertos y muelles","101 a 250 personas","CALLE","TENIENTE AZUETA","CALLE","COLIMA","CALLE","VENUSTIANO CARRANZA","CALLE","CONSTITUCIÓN","0","SN",,,"0","ALTOS","COLONIA","TAPEIXTLES",,,,"28239","06","COLIMA","007","Manzanillo","0001","Manzanillo","0418","003",,"HECTOR_MDZ@GRUPOGUME.COM",,"Fijo","19.05728607","-104.30353354","2012-06"
"8666053","GRUPO ALMACONT","GRUPO ALMACONT SA DE CV","488320","Servicios de carga y descarga para el transporte por agua","251 y más personas","CALLE","SAN LUIS POTOSÍ","CALLE","BENITO JUÁREZ","CALLE","LIBRAMIENTO","CALLE","LIBRAMIENTO","31",,,,"0",,"COLONIA","16 DE SEPTIEMBRE",,,,"28239","06","COLIMA","007","Manzanillo","0001","Manzanillo","0390","002",,"JURIDICO@ALMACONT.COM","WWW.ALMACONT.COM","Fijo","19.062019","-104.287378","2019-11"
"344466","MANIOBRAS INTEGRADAS DEL PUERTO SA DE CV","MANIOBRAS INTEGRADAS DEL PUERTO SA DE CV","488320","Servicios de carga y descarga para el transporte por agua","11 a 30 personas","AVENIDA","TENIENTE AZUETA","CALLE","NINGUNO","CALLE","NINGUNO","CALLE","NINGUNO","25",,,,"1",,"COLONIA","BUROCRATA",,,,"28250","06","COLIMA","007","Manzanillo","0001","Manzanillo","0418","001",,"BACRDENAS@MIPTERMINAL.COM",,"Fijo","19.05783706","-104.30322193","2014-12"
"9328899","MIP 7","MANIOBRAS INTEGRADAS DEL PUERTO SA DE CV","488320","Servicios de carga y descarga para el transporte por agua","6 a 10 personas","OTRO (ESPECIFIQUE)","COLOMOSTAPEIXTLES","OTRO (ESPECIFIQUE)","NINGUNO","OTRO (ESPECIFIQUE)","NINGUNO","OTRO (ESPECIFIQUE)","NINGUNO","0","SN",,,,,"COLONIA","TAPEIXTLES",,,,,"06","COLIMA","007","Manzanillo","0001","Manzanillo","0691","002",,"BCARDENAS@MIPTERMINAL.COM","WWW.MIPTERMINAL.COM","Fijo","19.07344206","-104.28133922","2020-11"
"6303349","OCUPA","OPERADORA DE LA CUENCA DEL PACIFICO SA DE CV","488320","Servicios de carga y descarga para el transporte por agua","101 a 250 personas","AVENIDA","CENTRAL SUR","CALLE","UNO PONIENTE","CALLE","PARGO","CALLE","PONIENTE UNO","0","SN",,,"0",,"PARQUE INDUSTRIAL","FONDEPORT","PARQUE INDUSTRIAL","PARQUE INDUSTRIAL FONDEPORT",,"28219","06","COLIMA","007","Manzanillo","0001","Manzanillo","0687","008",,,,"Fijo","19.08144031","-104.29294866","2010-07"
"6304117","OCUPA","OPERADORA DE LA CUENCA DEL PACIFICO SA DE CV","488320","Servicios de carga y descarga para el transporte por agua","11 a 30 personas","CALLE","NINGUNO","PRIVADA","NINGUNO","PRIVADA","NINGUNO","PRIVADA","NINGUNO","21",,"1","PLANTA BAJA","0",,"COLONIA","BURÓCRATAS","OTRO CONGLOMERADO","PUERTO INTERIOR SAN PEDRITO","SN","28250","06","COLIMA","007","Manzanillo","0001","Manzanillo","0418","002",,,"WWW.GRUPOOCUPA.COM.MX","Fijo","19.05942857","-104.3012328","2010-07"
"348111","OFICINA DE API MANZANILLO","ADMINISTRACION PORTUARIA INTEGRAL DE MANZANILLO SA DE CV","488310","Administración de puertos y muelles","101 a 250 personas","AVENIDA","TENIENTE AZUETA","PRIVADA","NINGUNO","CALLE","CONSTITUCIÓN","CALLE","NINGUNO","9",,,,"0",,"COLONIA","BURÓCRATA",,,,"28250","06","COLIMA","007","Manzanillo","0001","Manzanillo","0418","004",,"DVIRGEN@PUERTOMANZANILLO.COM.MX","WWW.PUERTOMANZANILLO.COM.MX","Fijo","19.05938014","-104.30275608","2010-07"
"6199399","TERMINAL INTERNACIONAL DE MANZANILLO","TERMINAL INTERANCIONAL DE MANZANILLO SA DE CV","488320","Servicios de carga y descarga para el transporte por agua","251 y más personas","AVENIDA","TENIENTE AZUETA","CALLE","NINGUNO","CALLE","NINGUNO","CALLE","NINGUNO","29",,"EDIFICIO 2",,"0",,"COLONIA","BUROCRATA",,,,"28250","06","COLIMA","007","Manzanillo","0001","Manzanillo","0418","012",,"RUIZ.DIOSELINA@TIMSAMX.COM","WWW.TIMSAMX.COM","Fijo","19.0574913","-104.30282184","2011-03"
"6303430","TERMINALES MEXICANAS DE CARGA Y ALMACENAJES","TERMINALES MEXICANAS DE CARGA Y ALMACENAJES SA DE CV","488320","Servicios de carga y descarga para el transporte por agua","101 a 250 personas","CALLE","BALLENA","PRIVADA","NINGUNO","CALLE","NINGUNO","CALLE","NINGUNO","0","SN",,,"0",,"COLONIA","OCEANO",,,,"28219","06","COLIMA","007","Manzanillo","0001","Manzanillo","0761","018",,"YENI.RICO@TMC.COM.MX","WWW.TMCA.MX","Fijo","19.08517222","-104.29001051","2010-07"
"453397","ADMINISTRACION PORTUARIA INTEGRAL DE PUERTO MADERO","ADMINISTRACION PORTUARIA INTEGRAL DE PUERTO MADERO ","488310","Administración de puertos y muelles","11 a 30 personas","PRIVADA","NINGUNO","CALLE","NINGUNO","CALLE","NINGUNO","OTRO (ESPECIFIQUE)","NINGUNO",,"SN",,,,,"PRIVADA","INDUSTRIAL",,,,"30830","07","CHIAPAS","089","Tapachula","0148","Puerto Madero (San Benito)","1204","003","9626286842",,,"Fijo","14.71106123","-92.3991457","2014-12"
"517867","SAN BENITO DEL PACIFICO SUR","SAN BENITO DEL PACIFICO SUR SA DE CV","488320","Servicios de carga y descarga para el transporte por agua","11 a 30 personas","CALLE","TERCERA NORTE","CALLE","TERCERA ORIENTE","CALLE","CANAL INTERCOSTERO","CALLE","PRIMERA NORTE",,"SN",,,,,"COLONIA","PUERTO MADERO",,,,"30830","07","CHIAPAS","089","Tapachula","0148","Puerto Madero (San Benito)","0418","019","9626982234",,,"Fijo","14.71955419","-92.41885156","2010-07"
"9097282","CENPORT CONSULTORES PORTUARIOS","CONSULTORES PORTUARIOS SC","488310","Administración de puertos y muelles","6 a 10 personas","AVENIDA","AVENIDA DE LAS NACIONES","CALLE","DAKOTA","AVENIDA","INSURGENTES SUR","CALLE","FILADELFIA","38",,"EDIFICIO SIN NOMBRE","PISO 6","6",,"COLONIA","NAPOLES","EDIFICIO COMERCIAL Y DE SERVICIOS","WORLD TRADE CENTER","OFICINA 19","03810","09","CIUDAD DE MÉXICO","014","Benito Juárez","0001","Benito Juárez","0219","001",,"ACCEASISTENT@GMAIL.COM","WWW.CENPORT.COM","Fijo","19.39467346","-99.17343831","2019-11"
"6858403","GMD ENERGIA Y PUERTOS","GMD ENERGIA Y PUERTOS SA DE CV","488320","Servicios de carga y descarga para el transporte por agua","6 a 10 personas","CARRETERA","FEDERAL MÉXICO-TOLUCA (PROLONGACIÓN PASEO DE LA REFORMA)","CALLE","COAHUILA","AVENIDA","VERACRUZ","PROLONGACION","COAHUILA","4000",,"OFICINAS CORPORATIVAS","PISO 1","0",,"COLONIA","CUAJIMALPA","OTRO CONGLOMERADO","OFICINAS CORPORATIVAS","0","05000","09","CIUDAD DE MÉXICO","004","Cuajimalpa de Morelos","0001","Cuajimalpa de Morelos","0091","005",,,"WWW.GMD.COM.MX","Fijo","19.35050553","-99.30046013","2019-04"
"6863484","GRANELERA MANZANILLO","GRANELERA MANZANILLO SA DE CV","488320","Servicios de carga y descarga para el transporte por agua","251 y más personas","CALLE","PASEO DE LOS TAMARINDOS","CALLE","BOSQUE DE LOS TABACHINES","PRIVADA","BOSQUE DE RADIATAS","CALLE","BOSQUE DE PIÑONEROS","400","B","EDIFICIO SIN NOMBRE","PISO 17",,,"COLONIA","BOSQUE DE LAS LOMAS",,,,"05120","09","CIUDAD DE MÉXICO","004","Cuajimalpa de Morelos","0001","Cuajimalpa de Morelos","0195","001",,"MAILMEX@PACNAV.COM.MX",,"Fijo","19.38813646","-99.25112792","2019-04"
"6861943","MULTIVER DE COATZACOALCOS SA DE CV","MULTIVER DE COATZACOALCOS SA DE CV","488320","Servicios de carga y descarga para el transporte por agua","101 a 250 personas","CALLE","NINGUNO","CALLE","BOSQUE DE LOS TABACHINES","PRIVADA","BOSQUE DE RADIATAS","CALLE","BOSQUE DE PIÑONEROS","400","B","TORRE ARCOS","PISO 17","0",,"COLONIA","BOSQUES DE LAS LOMAS","EDIFICIO COMERCIAL Y DE SERVICIOS","TORRES ARCOS",,"05120","09","CIUDAD DE MÉXICO","004","Cuajimalpa de Morelos","0001","Cuajimalpa de Morelos","0195","001",,"WWW.MAILMEX@PACNAVMEX.COM",,"Fijo","19.38839418","-99.250762","2019-04"
"6885224","SERVICIOS EN PUERTOS Y TERMINALES","SERVICIOS EN PUERTOS Y TERMINALES SA DE CV","488320","Servicios de carga y descarga para el transporte por agua","251 y más personas","AVENIDA","INSURGENTES SUR","CALLE","MERCADERES","CALLE","DAMAS","CERRADA","PERPETUA","1605",,"EDIFICIO SIN NOMBRE","PISO 19",,,"COLONIA","SAN JOSE INSURGENTES",,,,"03900","09","CIUDAD DE MÉXICO","014","Benito Juárez","0001","Benito Juárez","0914","003",,,,"Fijo","19.36365173","-99.18237525","2019-04"
"8130674","SERVICIOS Y MANIOBRAS DE ALTAMIRA","SERVICIOS Y MANIOBRAS DE ALTAMIRA SA DE CV","488320","Servicios de carga y descarga para el transporte por agua","101 a 250 personas","CALLE","GUADALAJARA","CALLE","PUEBLA","CALLE","SINALOA","CALLE","COZUMEL","32",,,,,,"COLONIA","ROMA NORTE",,,,"06700","09","CIUDAD DE MÉXICO","015","Cuauhtémoc","0001","Cuauhtémoc","1089","003",,"ABARAJAS@TRANSUNISA.COM",,"Fijo","19.41996349","-99.17269894","2019-11"
"847479","TRANSUNISA","TERMINALES MARITIMAS TRANSUNISA SA DE CV","488310","Administración de puertos y muelles","11 a 30 personas","CALLE","GUADALAJARA","CALLE","PUEBLA","CALLE","SINALOA","CALLE","COZUMEL","32",,,,,,"COLONIA","ROMA NORTE",,,,"06700","09","CIUDAD DE MÉXICO","015","Cuauhtémoc","0001","Cuauhtémoc","1089","003",,"ABARAJAS@TRANSUNISA.COM",,"Fijo","19.41996126","-99.17269837","2010-07"
"1964451","API PUERTO VALLARTA","ADMINISTRACIÓN PORTUARIA INTEGRAL PUERTO VALLARTA SA DE CV","488310","Administración de puertos y muelles","31 a 50 personas","AVENIDA","BOULEVARD FRANCISCO MEDINA ASCENCIO","AVENIDA","FRANCISCO MEDINA ASCENCIO","CALLE","NINGUNO","CALLE","MARINA NACIONAL","501",,,,"0","SN","COLONIA","ZONA HOTELERA NORTE",,,,"48333","14","JALISCO","067","Puerto Vallarta","0001","Puerto Vallarta","029A","018",,"JDPROMOCION@PUERTODEVALLARTA.COM.MX","WWW.PUERTODEVALLARTA.COM.MX","Fijo","20.65363527","-105.24325338","2010-07"
"8843302","PROAPIN","PROAPIN ","488320","Servicios de carga y descarga para el transporte por agua","6 a 10 personas","CALLE","28 DE OCTUBRE","CALLE","FIDEL VELAZQUEZ","AVENIDA","JOSE MARIA MORELOS Y PAVON","CALLE","FIDEL VELÁZQUEZ","107",,,,"0",,"COLONIA","SAN SEBASTIAN",,,,"50190","15","MÉXICO                      ","106","Toluca","0001","Toluca de Lerdo","0468","025",,,,"Fijo","19.28800354","-99.63793037","2019-11"
"6787953","ADMINISTRACIÓN PORTUARIA INTEGRAL DE LÁZARO CÁRDENAS SA DE CV","ADMINISTRACIÓN PORTUARIA INTEGRAL DE LÁZARO CÁRDENAS SA DE CV","488310","Administración de puertos y muelles","51 a 100 personas","BOULEVARD","BOULEVARD DE LAS ISLAS","CALLE","ISLA CERRALVO","CALLE","NINGUNO","AUTOPISTA","BOULEVARD DE LAS BAHÍAS","1",,,,"0",,"COLONIA","ISLA CAYACAL",,,,"60950","16","MICHOACÁN DE OCAMPO       ","052","Lázaro Cárdenas","0001","Ciudad Lázaro Cárdenas","0493","008",,"JDRHUMANOS@PUERTOLAZAROCARDENAS.COM.MX","WWW.PUERTOLAZAROCARDENAS.COM.MX","Fijo","17.96428918","-102.18152931","2017-03"
"6863239","COBALSA","CORPORACION DEL BALSAS SA DE CV","488320","Servicios de carga y descarga para el transporte por agua","101 a 250 personas","CALLE","FRANCISCO J. MUGICA","CALLE","NINGUNO","CALLE","NINGUNO","CALLE","CALLE DE LA VOLUNTAD","1","N",,,,,"COLONIA","CENTRO",,,,"60950","16","MICHOACÁN DE OCAMPO       ","052","Lázaro Cárdenas","0001","Ciudad Lázaro Cárdenas","1538","007",,,,"Fijo","17.95171096","-102.19625008","2019-04"
"6758049","HUTCHISON PORTS LCMT","LC MULTIPURPOSE TERMINAL SA DE CV","488320","Servicios de carga y descarga para el transporte por agua","51 a 100 personas","PRIVADA","GLORIETA","PRIVADA","BOULEVARD DE LAS BAHÍAS","BOULEVARD","BOULEVARD DE LAS BAHÍAS","OTRO (ESPECIFIQUE)","MAR","0","SN",,,"0",,"COLONIA","ISLA CAYACAL",,,,"60950","16","MICHOACÁN DE OCAMPO       ","052","Lázaro Cárdenas","0001","Ciudad Lázaro Cárdenas","0493","002",,"FISCAL@LCTPC.COM.MX",,"Fijo","17.96471752","-102.17864774","2016-10"
"6776845","HUTCHISON PORTS LCT","LC TERMINAL PORTUARIA DE CONTENEDORES SA DE CV","488320","Servicios de carga y descarga para el transporte por agua","251 y más personas","BOULEVARD","DE LAS ISLAS","PRIVADA","ISLA CERRALVO","BOULEVARD","DE LAS BAHÍAS","OTRO (ESPECIFIQUE)","NINGUNO","1","SN","SIN NOMBRE",,"14","MODULO 14","COLONIA","ISLA DEL CAYACAL","ZONA INDUSTRIAL",,"SN","60950","16","MICHOACÁN DE OCAMPO       ","052","Lázaro Cárdenas","0001","Ciudad Lázaro Cárdenas","0493","002",,"FISCAL@LCTPC.COM.MX","HUTCHISONPORTSLCT.COM","Fijo","17.96484514","-102.17865952","2017-03"
"6771941","MERITUS DE MEXICO","AGENCIA CONSIGNATARIA DE BUQUES SA DE CV","488320","Servicios de carga y descarga para el transporte por agua","11 a 30 personas","CALLE","CONSTITUCION DE 1814","CALLE","VENUSTIANO CARRANZA","AVENIDA","RECTOR HIDALGO","CALLE","EMILIANO ZAPATA","329",,,,,,"COLONIA","CENTRO",,,,"60950","16","MICHOACÁN DE OCAMPO       ","052","Lázaro Cárdenas","0001","Ciudad Lázaro Cárdenas","0281","015","7535321157",,,"Fijo","17.95485312","-102.19690897","2016-10"
"2673304","OPERADORA DE TERMINALES PORTUARIAS DEL PACIFICO","OPERADORA DE TERMINALES PORTUARIAS DEL PACIFICO SA DE CV","488320","Servicios de carga y descarga para el transporte por agua","251 y más personas","PRIVADA","BOULEVARD DE LAS BAHÍAS","PRIVADA","DE LAS BAHÍAS","BOULEVARD","DE LAS ISLAS","BOULEVARD","DE LOS RÍOS","0","SN",,,,,"SECCION","PORTUARIO",,,,"60950","16","MICHOACÁN DE OCAMPO       ","052","Lázaro Cárdenas","0001","Ciudad Lázaro Cárdenas","0493","008",,"CARLA.BENITEZ@TPP.COM.MX",,"Fijo","17.96427819","-102.18151779","2014-12"
"3173590","ADMINISTRACIÓN PORTUARIA INTEGRAL DE SALINA CRUZ","ADMINISTRACIÓN PORTUARIA INTEGRAL DE SALINA CRUZ SA DE CV","488310","Administración de puertos y muelles","51 a 100 personas","AVENIDA","TAMPICO","CALZADA","CALZADA DEL PANTEÓN","CALLE","NINGUNO","CALLE","SIN REFERENCIA","0","SN",,,"0",,"COLONIA","CANTARRANAS",,,,"70670","20","OAXACA","079","Salina Cruz","0001","Salina Cruz","0224","001",,"JDRHUMANOS@PUERTOSALINACRUZ.COM.MX","WWW.PUERTOSALINACRUZ.COM.MX","Fijo","16.17098129","-95.19034413","2010-07"
"9332037","TRANSPORTE TURISTICO 9 MANATIALES","GOBIERNO DEL MUNICIPIO DE CHIGNAUTLA ","488320","Servicios de carga y descarga para el transporte por agua","31 a 50 personas","BOULEVARD","JUAREZ","CALLE","5 de Mayo","CALLE","20 de Noviembre","CALLE","Ninguno",,"SN",,,,,"LOCALIDAD","CHIGNAUTLA",,,,,"21","PUEBLA","054","Chignautla","0001","Chignautla","0094","013",,,,"Fijo","19.81653803","-97.38972423","2020-11"
"3663166","ADMINISTRACION PORTUARIA INTEGRAL DE QUINTANA ROO  API COZUMEL","ADMINISTRACION PORTUARIA INTEGRAL DE QUINTANA ROO SA DE CV","488310","Administración de puertos y muelles","101 a 250 personas","AVENIDA","31 SUR","CALLE","25","AVENIDA","RAFAEL E. MELGAR","CALLE","27 SUR","0","SN",,,,,"COLONIA","CENTRO",,,,"77664","23","QUINTANA ROO","001","Cozumel","0001","Cozumel","1280","001",,"APIQROO@APIQROO.COM.MX","WWW.APIQROO.COM.MX","Fijo","20.49366143","-86.96109931","2014-12"
"6514615","ADMINISTRACION PORTUARIA INTEGRAL DE QUINTANA ROO  APIQROO PUERTO JUÁREZPUNTA SAM","ADMINISTRACION PORTUARIA INTEGRAL DE QUINTANA ROO SA DE CV","488310","Administración de puertos y muelles","51 a 100 personas","AVENIDA","PUERTO JUÁREZ","PRIVADA","PUERTO JUÁREZ","CALLE","NINGUNO","CALLE","NINGUNO","84",,,,"0",,"COLONIA","PUERTO JUÁREZ",,,,"77500","23","QUINTANA ROO","005","Benito Juárez","0001","Cancún","3479","002",,"APIQROO@APIQROO.COM.MX","WWW.APIQROO.COM.MX","Fijo","21.18830145","-86.80739526","2016-01"
"6514618","ADMINISTRACION PORTUARIA INTEGRAL DE QUINTANA ROO API ISLA MUJERES","ADMINISTRACION PORTUARIA INTEGRAL DE QUINTANA ROO SA DE CV","488310","Administración de puertos y muelles","51 a 100 personas","AVENIDA","RUEDA MEDINA","AVENIDA","SECUNDARIA TECNICA","CALLE","2 DE ABRIL","CALLE","5 DE MAYO","0","SN",,,"0",,"COLONIA","ISLA MUJERES",,,,"77400","23","QUINTANA ROO","003","Isla Mujeres","0001","Isla Mujeres","0018","049",,,,"Fijo","21.25526371","-86.74627884","2016-01"
"6514616","ADMINISTRACION PORTUARIA INTEGRAL DE QUINTANA ROO API PUERTO MORELOS","ADMINISTRACION PORTUARIA INTEGRAL DE QUINTANA ROO SA DE CV","488310","Administración de puertos y muelles","11 a 30 personas","CALLE","RAFAEL E. MELGAR","CALLE","JOSÉ MARÍA MORELOS","AVENIDA","LÓPEZ MATEOS","AVENIDA","JAVIER ROJO GOMEZ","0","SN",,,"0",,"COLONIA","CENTRO",,,,"77580","23","QUINTANA ROO","011","Puerto Morelos ","0001","Puerto Morelos","0109","018",,,,"Fijo","20.84788534","-86.87539896","2016-01"
"6514617","APIQROO CHETUMAL","ADMINISTRACION PORTUARIA INTEGRAL DE QUINTANA ROO SA DE CV","488310","Administración de puertos y muelles","101 a 250 personas","AVENIDA","22 DE ENERO","AVENIDA","MIGUEL HIDALGO","AVENIDA","REFORMA","AVENIDA","OTHON P BLANCO","261",,,,"0",,"COLONIA","CENTRO",,,,"77000","23","QUINTANA ROO","004","Othón P. Blanco","0001","Chetumal","0585","024",,"APIQROO@APIQROO.COM.MX","WWW.APIQROO.COM.MX","Fijo","18.49425967","-88.30118149","2016-01"
"6858485","COZUMEL CRUISE TERMINAL","COZUMEL CRUISE TERMINAL SA DE CV","488310","Administración de puertos y muelles","51 a 100 personas","CARRETERA","RAFAEL E. MELGAR","AVENIDA","RAFAEL E. MELGAR","CALLE","NINGUNO","CALLE","NINGUNO","0","SN",,,"0",,"OTRO (ESPECIFIQUE)","ZONA HOTELERA SUR","CENTRO Y PLAZA COMERCIAL","TERMINAL MARITIMA PUERTA MAYA",,"77600","23","QUINTANA ROO","001","Cozumel","0001","Cozumel","1261","006",,"MGONZALEZ2@CARNIVAL.COM","WWW.PUERTAMAYA.COM","Fijo","20.47488938","-86.97348658","2019-04"
"3642383","OFICINAS ADMINISTRATIVAS MUELLE PUNTA LANGOSTA","OPERAMAR SA DE CV","488310","Administración de puertos y muelles","11 a 30 personas","AVENIDA","RAFAEL E. MELGAR","OTRO (ESPECIFIQUE)","RAFAEL E MELGAR","ANDADOR","11 SUR (LICENCIADO ANDRES QUINTANA ROO)","OTRO (ESPECIFIQUE)","NINGUNO",,"SN","EDIFICIO SIN NOMBRE","PISO 2",,"1","COLONIA","CENTRO",,,,"77600","23","QUINTANA ROO","001","Cozumel","0001","Cozumel","0051","046","9878725108","MUELLE@PUNTALANGOSTA.COM.MX",,"Fijo","20.50759681","-86.95532208","2014-12"
"6770323","TERMINAL DE CRUCEROS PUNTA LANGOSTA COZUMEL","TERMINAL DE CRUCEROS PUNTA LANGOSTA COZUMEL SA DE CV","488310","Administración de puertos y muelles","11 a 30 personas","AVENIDA","7 Sur","CALLE","SAN JUAN KILÓMETRO 1.5","CALLE","NINGUNO","OTRO (ESPECIFIQUE)","SIN REFERENCIA","0","SN",,,"0",,"COLONIA","CENTRO",,,,"77600","23","QUINTANA ROO","001","Cozumel","0001","Cozumel","0051","045",,"FSAENZ@PUNTALANGOSTA.COM.MX",,"Fijo","20.50728588","-86.95381214","2016-10"
"3650099","TERMINAL MARÍTIMA DE PUERTO MORELOS","ADMINISTRACION PORTUARIA INTEGRAL DE QUINTANA ROO ","488310","Administración de puertos y muelles","6 a 10 personas","OTRO (ESPECIFIQUE)","SIN REFERENCIA","CALLE","COZUMEL","CALLE","NINGUNO","CALLE","NINGUNO",,"SN",,,,,"COLONIA","CENTRO",,,,"77580","23","QUINTANA ROO","011","Puerto Morelos ","0001","Puerto Morelos","0109","005",,,,"Fijo","20.84332399","-86.87975288","2014-12"
"8367846","TERMINAL MARITIMA ISLA MUJERES API","ADMINISTRACION PORTUARIA INTEGRAL ","488310","Administración de puertos y muelles","31 a 50 personas","AVENIDA","RUEDA MEDINA","CALLE","NINGUNO","PEATONAL","MORELOS","OTRO (ESPECIFIQUE)","NINGUNO",,"SN",,,,,"COLONIA","CENTRO",,,,"77400","23","QUINTANA ROO","003","Isla Mujeres","0001","Isla Mujeres","0018","049",,,,"Fijo","21.25449849","-86.74522503","2019-11"
"6880902","V&V MARINA","PUERTO MUJERES SA DE CV","488310","Administración de puertos y muelles","31 a 50 personas","CALLE","NINGUNO","CALLE","MARINA LA AMADA","CALLE","VIALIDAD PASEO MUJERES","CALLE","NINGUNO","0","MZ 1 L34",,,"0",,"SUPERMANZANA","SM3 PASEO PLAYA MUJERES","CORREDORES TURÍSTICOS","MARINA V&V PUERTO MUJERES",,"77400","23","QUINTANA ROO","003","Isla Mujeres","0092","Punta Sam","0075","002",,"CONTABILIDAD3@MARINAVV.COM",,"Fijo","21.23507044","-86.80195664","2019-04"
"3780000","ADMINISTRACIÓN PORTUARIA INTEGRAL DE MAZATLÁN SA DE CV","ADMINISTRACIÓN PORTUARIA INTEGRAL DE MAZATLÁN SA DE CV","488310","Administración de puertos y muelles","31 a 50 personas","AVENIDA","EMILIO BARRAGÁN","CALLE","SEGUNDA LEANDRO VALLE","CALLE","21 DE MARZO","CALLE","NINGUNO","0","SN",,,"0",,"COLONIA","CENTRO",,,,"82000","25","SINALOA","012","Mazatlán","0001","Mazatlán","1508","009",,"GADMON@PUERTOMAZATLAN.COM.MX","WWW.PUERTOMAZATLAN.MX","Fijo","23.1966409","-106.41499146","2010-07"
"3779948","API TOPOLOBAMPO","ADMINISTRACIÓN PORTUARIA INTEGRAL DE TOPOLOBAMPO SA DE CV","488310","Administración de puertos y muelles","51 a 100 personas","CALLE","EJE 4","CALLE","NINGUNO","CALLE","NINGUNO","CALLE","NINGUNO","0","SN",,,"0",,"ZONA INDUSTRIAL","RECINTO PORTUARIO",,,"SN","81372","25","SINALOA","001","Ahome","0240","Topolobampo","0972","033",,"GADMON@PUERTOTOPOLOBAMPO.COM.MX","WWW.PUERTOTOPOLOBAMPO.COM.MX","Fijo","25.59619604","-109.05827358","2010-07"
"3824983","NAUTICA COSTA BONITA","CB HACIENDA SC DE RL DE CV","488310","Administración de puertos y muelles","11 a 30 personas","BOULEVARD","MARINA MAZATLAN","OTRO (ESPECIFIQUE)","NINGUNO","CALLE","CERRADA SABALO CERRITOS","OTRO (ESPECIFIQUE)","NINGUNO",,"SN",,,,,"FRACCIONAMIENTO","LA MARINA MAZATLAN",,,,"82103","25","SINALOA","012","Mazatlán","0001","Mazatlán","2192","008","6699881251",,,"Fijo","23.27417961","-106.46524935","2014-12"
"3831601","SERVICIO DE CARGA Y DESCARGA JEMO","SERVICIO DE CARGA Y DESCARGA JEMO SA DE CV","488320","Servicios de carga y descarga para el transporte por agua","51 a 100 personas","CALLE","MAR DEL SUR","AVENIDA","EMILIO BARRAGAN","CALLE","MAR DEL JAPON","CALLE","MAR DEL NORTE","539",,,,,,"COLONIA","LAZARO CARDENAS",,,,"82050","25","SINALOA","012","Mazatlán","0001","Mazatlán","1508","025",,"SERVICIOSDECARGA_DESCARGA@HOTMAIL.COM",,"Fijo","23.19448119","-106.41804469","2014-12"
"3778426","TERMINAL TRANSOCEANICA DE TOPOLOBAMPO","TERMINAL TRANSOCEANICA DE TOPOLOBAMPO SA DE CV","488310","Administración de puertos y muelles","51 a 100 personas","CALLE","NINGUNO","CALLE","NINGUNO","CALLE","NINGUNO","OTRO (ESPECIFIQUE)","NINGUNO",,"SN",,,,,"PARQUE INDUSTRIAL","RECINTO PORTUARIO",,,,"81370","25","SINALOA","001","Ahome","0240","Topolobampo","0972","021","6688620836",,,"Fijo","25.58491949","-109.06073448","2010-07"
"9316670","TRAMITADORA DEL PACIFICO SA DE CV","TRAMITADORA DEL PACIFICO SA DE CV","488320","Servicios de carga y descarga para el transporte por agua","51 a 100 personas","BOULEVARD","Adolfo López Mateos","CALLE","Albert K. Owen","CALLE","Furel","CALLE","Licenciado Benito Juárez","0","SN",,,"0",,"BARRIO","CENTRO",,,,"81370","25","SINALOA","001","Ahome","0240","Topolobampo","1025","012",,"TOPOLOBAMPO@TRAMITADORA.COM","WWW.TRAMITADORA.COM","Fijo","25.60108667","-109.0526964","2020-11"
"3862269","ADMINISTRACION PORTUARIA INTEGRAL DE GUAYMAS SA DE CV","ADMINISTRACIÓN PORTUARIA INTEGRAL DE GUAYMAS SA DE CV","488310","Administración de puertos y muelles","51 a 100 personas","CALLE","NINGUNO","CALLE","NINGUNO","CALLE","DOS","CALLE","NINGUNO","0","SN",,,"0",,"COLONIA","PUNTA ARENA",,,,"85430","26","SONORA","029","Guaymas","0001","Heroica Guaymas","1054","001",,"GADMON@PUERTODEGUAYMAS.COM.MX","WWW.PUERTODEGUAYMAS.COM.MX","Fijo","27.92091344","-110.87083952","2010-07"
"3914980","TERMINAL MARITIMA PESQUERA LAS PLAYITAS APIM GUAYMAS","ADMINISTRACIÓN PORTUARIA INTEGRAL MUNICIPAL DE GUAYMAS SA DE CV","488310","Administración de puertos y muelles","11 a 30 personas","CALLE","CALLE AL VARADERO","CARRETERA","NINGUNO","CARRETERA","NINGUNO","OTRO (ESPECIFIQUE)","NINGUNO","0","SN",,,,,"COLONIA","LAS PLAYITAS",,,,"85480","26","SONORA","029","Guaymas","0001","Heroica Guaymas","2315","044",,"APIM_GUAYMAS@HOTMAIL.COM","WWW.APIMGUAYMAS.COM.MX","Fijo","27.89836883","-110.87538601","2014-12"
"6776760","TRANSFERENCIAS PORTUARIAS DEL PACIFICO","TRANSFERENCIAS PORTUARIAS DEL PACIFICO SA DE CV","488320","Servicios de carga y descarga para el transporte por agua","251 y más personas","CALLE","NINGUNO","CALLE","NINGUNO","CALLE","SERDÁN","CALLE","NINGUNO","0","SN",,,"0",,"COLONIA","PUNTA ARENA",,,,"85430","26","SONORA","029","Guaymas","0001","Heroica Guaymas","1054","003",,"RPERERA@TPPGUAYMAS.COM.MX",,"Fijo","27.92557382","-110.86981257","2017-03"
"4025521","ADMINISTRACIÓN PORTUARIA INTEGRAL DE TABASCO","ADMINISTRACION PORTUARIA INTEGRAL DE TABASCO ","488310","Administración de puertos y muelles","11 a 30 personas","CALLE","NINGUNO","CALLE","JOSE MARIA PINO SUAREZ","CALLE","NINGUNO","OTRO (ESPECIFIQUE)","SENDERO",,"SN",,,,,"COLONIA","CENTRO",,,,"86751","27","TABASCO","003","Centla","0001","Frontera","0374","035","9133320805","DIRECTOR.GENERAL@APITABASCO.MX",,"Fijo","18.5316409","-92.65435948","2010-07"
"3970778","ADMINISTRACIÓN PORTUARIA INTEGRAL DOS BOCAS","ADMINISTRACIÓN PORTUARIA INTEGRAL DOS BOCAS SA DE CV","488310","Administración de puertos y muelles","31 a 50 personas","BOULEVARD","CARETERA FEDERAL PUERTO CEIBAPARAISO","CALLE","LEONEL MAGAÑA","PRIVADA","NINGUNO","CALLE","NACIR ANTONIO RAJAL","14",,"EDIFICIO SIN NOMBRE","PLANTA BAJA","0","SN","COLONIA","QUINTIN ARAUZ",,,,"86600","27","TABASCO","014","Paraíso","0001","Paraíso","0185","009",,"SGADMON@PUERTODOSBOCAS.COM.MX","WWW.APIDOSBOCAS.COM.MX","Fijo","18.39292882","-93.210826","2010-07"
"8345132","CAPITANIA DE PUERTO FRONTERA TABASCO","SECRETARIA DE MARINA ","488310","Administración de puertos y muelles","11 a 30 personas","CALLE","FRANCISCO I. MADERO","CALLEJON","POLO NORTE","CALLE","JOSE MARIA PINO SUAREZ","OTRO (ESPECIFIQUE)","PRESA",,"SN",,,,,"COLONIA","FRONTERA CENTRO",,,,"86751","27","TABASCO","003","Centla","0001","Frontera","0374","035",,,,"Fijo","18.53089044","-92.65377023","2019-11"
"9327472","H LSPD AMERICAS","H LSPD AMERICAS ","488310","Administración de puertos y muelles","251 y más personas","PROLONGACION","PROLONGACION 27 DE FEBRERO","AVENIDA","PLANETARIO","AVENIDA","PASEO USUMACINTA","AVENIDA","AVENIDA DE LOS R?OS","4506",,,,,,"COLONIA","TABASCO 2000",,,,"86035","27","TABASCO","004","Centro","0001","Villahermosa","1577","006",,"JONATHAN.CHABLE@PETROFAC.COM",,"Fijo","17.99815132","-92.94956603","2020-11"
"4093175","ADMINISTRACION DE SERVICIOS PORTUARIOS","ADMINISTRACION DE SERVICIOS PORTUARIOS SA DE CV","488310","Administración de puertos y muelles","51 a 100 personas","CALLE","HEROES DEL CAÑONERO TAMPICO","CALLE","GENERAL CESAR LOPEZ DE LARA","CALLE","ADUANA","CALLE","FRANCISCO I. MADERO","409",,,,,,"COLONIA","CENTRO",,,,"89000","28","TAMAULIPAS","038","Tampico","0001","Tampico","0463","036","8331057634",,"WWW.GRUPOCICE.COM","Fijo","22.21263874","-97.85624052","2014-12"
"6756651","ADMINISTRACION DEL SISTEMA PORTUARIO NACIONAL TAMPICO","ADMINISTRACION DEL SISTEMA PORTUARIO NACIONAL TAMPICO SA DE CV","488310","Administración de puertos y muelles","51 a 100 personas","PRIVADA","NINGUNO","AVENIDA","EXPRÉSS","CALLE","SIN REFERENCIA","AUTOPISTA","NINGUNO","0","SN",,,"0",,"COLONIA","CENTRO",,,,"89000","28","TAMAULIPAS","038","Tampico","0001","Tampico","0478","033",,"SGADMON@PUERTODETAMPICO.COM.MX","WWW.PUERTODETAMPICO.COM.MX","Fijo","22.21187769","-97.85741551","2016-10"
"6276931","ADMINISTRACIÓN PORTUARIA INTEGRAL DE ALTAMIRA SCT","ADMINISTRACION PORTUARIA INTEGRAL DE ALTAMIRA SA DE CV","488310","Administración de puertos y muelles","51 a 100 personas","PRIVADA","CALLE","PRIVADA","DE LOS RÍOS","AVENIDA","GOLFO DE CALIFORNIA","BOULEVARD","DE LAS BAHIAS","0","SN",,,"0",,"PUERTO","PUERTO INDUSTRIAL",,,,"89603","28","TAMAULIPAS","003","Altamira","0685","Altamira [Puerto Industrial]","1004","020",,,,"Fijo","22.47924863","-97.87387914","2010-07"
"6722113","ADMINISTRACION PORTUARIA INTEGRAL DE TAMAULIPAS","ADMINISTRACION PORTUARIA INTEGRAL DE TAMAULIPAS ","488310","Administración de puertos y muelles","11 a 30 personas","AVENIDA","PEDRO CARDENAS GUTIERREZ","CALLE","NINGUNO","CALLE","AGAPITO GONZALEZ (PATRIOTISMO)","CALLE","AGAPITO GONZÁLEZ (PATRIOTISMO)",,"SN",,,,,"COLONIA","MAGISTERIAL",,,,"87396","28","TAMAULIPAS","022","Matamoros","0001","Heroica Matamoros","1688","018","8688170831","APITAMAULIPAS@GMAIL.COM",,"Fijo","25.83138112","-97.51100829","2016-01"
"6457658","ADMINISTRADORA DE TERMINALES MARITIMAS","ADMINISTRADORA DE TERMINALES MARITIMAS SA DE CV","488310","Administración de puertos y muelles","51 a 100 personas","CALLE","NUEVO PUERTO INDUSTRIAL","CALLE","NINGUNO","CALLE","NINGUNO","BOULEVARD","DE LOS RÍOS","1580",,"1","PLANTA BAJA","0",,"PUERTO","PUERTO INDUSTRIAL DE ALTAMIRA",,,,"89600","28","TAMAULIPAS","003","Altamira","0685","Altamira [Puerto Industrial]","1004","006",,,,"Fijo","22.48634598","-97.89155741","2014-12"
"4087078","ALTAMIRA TERMINAL PORTUARIA SA DE CV","ALTAMIRA TERMINAL PORTUARIA SA DE CV","488320","Servicios de carga y descarga para el transporte por agua","11 a 30 personas","BOULEVARD","GOLFO DE MEXICO","CALLE","SIN  REFERENCIA","CALLE","SIN REFERENCIA","OTRO (ESPECIFIQUE)","MARGEN DEL GOLFO DE MEXICO","0","SN",,,"0",,"PARQUE INDUSTRIAL","INDUSTRIAL DE ALTAMIROA","PARQUE INDUSTRIAL","PARQUE INDUSTRIAL PUERTO INDUSTRIAL ALTAMIRA",,,"28","TAMAULIPAS","003","Altamira","0685","Altamira [Puerto Industrial]","1004","021",,"EMJIMENEZ@ATPALTAMIRA.COM.MX","WWW.ATPALTAMIRA.COM.MX","Fijo","22.46928303","-97.87434799","2014-12"
"6862474","AMPORTS DE MEXICO","AMPORTS DE MEXICO SA DE CV","488320","Servicios de carga y descarga para el transporte por agua","101 a 250 personas","BOULEVARD","GOLFO DE MEXICO","OTRO (ESPECIFIQUE)","GOLFO DE MEXICO","OTRO (ESPECIFIQUE)","GOLFO DE MEXICO","AVENIDA","MANZANA 800","0","SN",,,"0",,"PARQUE INDUSTRIAL","PUERTO INUSTRIAL DE ALTAMIRA","PARQUE INDUSTRIAL","PARQUE INDUSTRIAL PUERTO INDUSTRIAL ALTAMIRA",,"89603","28","TAMAULIPAS","003","Altamira","0888","Comunidad el Delfín","1004","800",,"ECORONA@AMPORTSMEXICO.COM","WWW.AMPORTS.COM","Fijo","22.47489198","-97.88601106","2019-04"
"9308062","AMPORTS DE MEXICO","AMPORTS DE MEXICO ","488320","Servicios de carga y descarga para el transporte por agua","31 a 50 personas","CALLE","GOLFO PERSICO","OTRO (ESPECIFIQUE)","G","OTRO (ESPECIFIQUE)","G","BOULEVARD","GOLFO DE MEXICO",,"SN",,,,,"OTRO (ESPECIFIQUE)","PUERTO INDUSTRIAL",,,,"89608","28","TAMAULIPAS","003","Altamira","0685","Altamira [Puerto Industrial]","1004","021",,,,"Fijo","22.46910912","-97.87513304","2020-11"
"4140226","API TAMPICO","ADMINISTRACION PORTUARIA INTEGRAL DE TAMPICO ","488310","Administración de puertos y muelles","31 a 50 personas","AVENIDA","EXPRESS","PRIVADA","NINGUNO","CALLE","MONTERREY","OTRO (ESPECIFIQUE)","NINGUNO",,"SN",,,,,"COLONIA","ZONA CENTRO",,,,"89000","28","TAMAULIPAS","038","Tampico","0001","Tampico","0497","034",,,,"Fijo","22.21168936","-97.85825703","2010-07"
"9279775","ATEMSA II","INMOBILIARIA PORTUARIA DE ALTAMIRA SA DE CV","488320","Servicios de carga y descarga para el transporte por agua","31 a 50 personas","CALLE","MAR BALTICO","OTRO (ESPECIFIQUE)","SIN REFERENCIA","OTRO (ESPECIFIQUE)","MAR NEGRO","CALLE","PROLONGACION GOLFO DE MEXICO",,"SN",,,,,"OTRO (ESPECIFIQUE)","PUERTO INDUSTRIAL",,,,"89608","28","TAMAULIPAS","003","Altamira","0685","Altamira [Puerto Industrial]","1004","020",,,,"Fijo","22.47100208","-97.8711263","2020-11"
"9279777","ATEMSA II","INMOBILIARIA PORTUARIA DE ALTAMIRA SA DE CV","488320","Servicios de carga y descarga para el transporte por agua","31 a 50 personas","CALLE","MAR BALTICO","OTRO (ESPECIFIQUE)","SIN REFERENCIA","OTRO (ESPECIFIQUE)","MAR NEGRO","CALLE","PROLONGACION GOLFO DE MEXICO",,"SN",,,,,"OTRO (ESPECIFIQUE)","PUERTO INDUSTRIAL",,,,"89608","28","TAMAULIPAS","003","Altamira","0685","Altamira [Puerto Industrial]","1004","019",,,,"Fijo","22.47257098","-97.87120743","2020-11"
"9308061","ATEMSA STEEL TERMINAL ALTAMIRA","INMOBILIARIA PORTUARIA DE ALTAMIRA SA DE CV","488320","Servicios de carga y descarga para el transporte por agua","31 a 50 personas","CALLE","PROLONGACION GOLFO DE MEXICO","OTRO (ESPECIFIQUE)","SIN REFERENCIA","OTRO (ESPECIFIQUE)","MAR NEGRO","CALLE","PROLONGACION GOLFO DE MEXICO",,"SN",,,,,"OTRO (ESPECIFIQUE)","PUERTO INDUSTRIAL",,,,"89608","28","TAMAULIPAS","003","Altamira","0685","Altamira [Puerto Industrial]","1004","018",,,,"Fijo","22.4786408","-97.87226351","2020-11"
"4140434","COMPAÑÍA TERMINAL DE MANZANILLO SA DE CV","COMPAÑÍA TERMINAL DE MANZANILLO SA DE CV","488320","Servicios de carga y descarga para el transporte por agua","101 a 250 personas","CALLE","EMILIANO ZAPATA","ANDADOR","REFORMA","CALLE","5 DE FEBRERO","CALLE","PUEBLA","523","ALTOS",,,"0",,"COLONIA","OBRERA",,,,,"28","TAMAULIPAS","038","Tampico","0001","Tampico","0247","007",,"HECTOR_MDZ@GRUPOGUME.COM",,"Fijo","22.24120309","-97.84900203","2012-06"
"6772660","GRUPO ALMACONT SA DE CV","GRUPO ALMACONT SA DE CV","488320","Servicios de carga y descarga para el transporte por agua","101 a 250 personas","CALLE","TAMAULIPAS","CALLE","ADUANA","BOULEVARD","LICENCIADO ADOLFO LÓPEZ MATEOS","ANDADOR","NINGUNO","407",,,,,,"COLONIA","CENTRO",,,,"89000","28","TAMAULIPAS","038","Tampico","0001","Tampico","0798","003",,"TAMPAGOS@ALMACONT.COM",,"Fijo","22.22173291","-97.85338755","2016-10"
"4092780","GRUPO TMM","PRESTADORA DE SERVICIOS MTR SA DE CV","488320","Servicios de carga y descarga para el transporte por agua","11 a 30 personas","CALLE","EMILIO CARRANZA","CALLE","20 DE NOVIEMBRE","CALLE","SOR JUANA INES DE LA CRUZ","CALLE","SALVADOR DÍAZ MIRÓN","216","PONIENTE",,,,,"COLONIA","CASCAJAL",,,,"89000","28","TAMAULIPAS","038","Tampico","0001","Tampico","0463","001",,,,"Fijo","22.21700603","-97.85955003","2014-12"
"6457661","INFRAESTRUCTURA PORTUARIA MEXICANA","INFRAESTRUCTURA PORTUARIA MEXICANA SA DE CV","488310","Administración de puertos y muelles","101 a 250 personas","BOULEVARD","GOLFO DE MEXICO","OTRO (ESPECIFIQUE)","MAR BALTICO","OTRO (ESPECIFIQUE)","SIN NOMBRE","BOULEVARD","MANZANA 800","0","SN",,,"0",,"PUERTO","PUERTO INDUSTRIAL DE ALTAMIROA",,,,"89600","28","TAMAULIPAS","003","Altamira","0685","Altamira [Puerto Industrial]","1004","019",,"BRODRIGUEZ@IPMALTAMIRA.COM.MX","WWW.IPMALTAMIRA.COM","Fijo","22.46889097","-97.86895276","2014-12"
"6457662","INMOBILIARIA PORTUARIA DE ALTAMIRA","INMOBILIARIA PORTUARIA DE ALTAMIRA S DE RL DE CV","488310","Administración de puertos y muelles","51 a 100 personas","BOULEVARD","GOLFO DE MEXICO","CALLE","NINGUNO","CALLE","NINGUNO","BOULEVARD","MANZANA 800","0","SN",,,"0",,"PUERTO","PUERTO INDUSTRIAL DE ALTAMIROA",,,,"89608","28","TAMAULIPAS","003","Altamira","0685","Altamira [Puerto Industrial]","1004","022",,"GHESTEVEZ@STEELRERMINAL.COM","WWW.STEELALTAMIRA.COM","Fijo","22.47559634","-97.8790437","2014-12"
"6456263","MSC ALTAMIRA","MEDITERRANEAN SHIPPING COMPANY MEXICO SA DE CV","488320","Servicios de carga y descarga para el transporte por agua","6 a 10 personas","CALLE","RIO TAMESI","CALLE","NINGUNO","CALLE","NINGUNO","CALLE","NINGUNO",,,,,"0","DESPACHO 360","CORREDOR INDUSTRIAL","PUERTO INDUSTRIAL ALTAMIRA",,,,"89603","28","TAMAULIPAS","003","Altamira","0685","Altamira [Puerto Industrial]","1004","020",,"LEONARDO.LUNA@MSC.COM","WWW.MSC.COM","Fijo","22.46471381","-97.87228249","2012-06"
"8809072","TERMINAL PORTUARIA","PETELOGISTIS SA DE CV","488320","Servicios de carga y descarga para el transporte por agua","11 a 30 personas","CALLE","GENERAL IGNACIO ZARAGOZA","CALLE","ESPERANZA","CALLE","VOLANTIN","CALLE","SIN REFERENCIA",,"SN",,,"503",,"COLONIA","GUADALUPE VICTORIA",,,,"89070","28","TAMAULIPAS","038","Tampico","0001","Tampico","036A","026",,"PTCONTRALOR@GMAIL.COM",,"Fijo","22.21662851","-97.841376","2019-11"
"6742724","ADMINISTRACIÓN PORTUARIA INTEGRAL DE COATZACOALCOS SA DE CV","ADMINISTRACIÓN PORTUARIA INTEGRAL DE COATZACOALCOS SA DE CV","488310","Administración de puertos y muelles","51 a 100 personas","AVENIDA","OLMECA","AVENIDA","TLÁLOC","PRIVADA","NINGUNO","AVENIDA","TOLTECA",,"SN",,,,,"COLONIA","CENTRO",,,,"96400","30","VERACRUZ DE IGNACIO DE LA LLAVE","039","Coatzacoalcos","0001","Coatzacoalcos","0519","024",,,,"Fijo","18.13145089","-94.42093844","2016-10"
"4210470","ADMINISTRACIÓN PORTUARIA INTEGRAL DE TUXPAN","ADMINISTRACION PORTUARIA INTEGRAL DE TUXPAN SA DE CV","488310","Administración de puertos y muelles","31 a 50 personas","BOULEVARD","LA CALZADA","CALLE","FRESA","OTRO (ESPECIFIQUE)","SIN REFERENCIA","OTRO (ESPECIFIQUE)","SIN REFERENCIA","0","SN",,,"0",,"COLONIA","LA CALZADA","OTRO CONGLOMERADO","CARRETA A LA BARRA NORTE","SN","92773","30","VERACRUZ DE IGNACIO DE LA LLAVE","189","Tuxpan","0001","Túxpam de Rodríguez Cano","0732","020",,"JDRHUMANOS@PUERTOTUXPAN.COM.MX","WWW.PUERTOTUXPAN.COM.MX","Fijo","20.95383449","-97.3487866","2010-07"
"6811294","APIVER","ADMINISTRACION PORTUARIA INTEGRAL DE VERACRUZ SA DE CV","488310","Administración de puertos y muelles","101 a 250 personas","CALLE","MARINA MERCANTE","CALLE","JOSE MONTESINOS","CALLE","INSURGENTES VERACRUZANOS","CALLE","RECINTO PORTUARIO","210",,,,,,"COLONIA","CENTRO",,,,"91700","30","VERACRUZ DE IGNACIO DE LA LLAVE","193","Veracruz","0001","Veracruz","2638","033",,"DIRECCION@PUERTODEVERACRUZ.COM.MX","WWW.PUERTODEVERACRUZ.COM.MX","Fijo","19.20210867","-96.13802627","2017-11"
"9330199","AUDITORIO APIVER","ADMINISTRACION PORTUARIA INTEGRAL DE VERACRUZ ","488310","Administración de puertos y muelles","31 a 50 personas","CALLE","NINGUNO","OTRO (ESPECIFIQUE)","SIN REFERENCIA","CALLE","NINGUNO","CALLE","NINGUNO",,"SN",,,,,"COLONIA","CENTRO",,,,"91700","30","VERACRUZ DE IGNACIO DE LA LLAVE","193","Veracruz","0001","Veracruz","2638","036",,,,"Fijo","19.20455934","-96.13872246","2020-11"
"9330451","CICE","CORPORACION INTEGRAL DE COMERCIO EXTERIOR ","488320","Servicios de carga y descarga para el transporte por agua","31 a 50 personas","CALLE","NINGUNO","CALLE","NINGUNO","CALLE","NINGUNO","CALLE","NINGUNO",,"SN",,,,,"COLONIA","CENTRO",,,,"91700","30","VERACRUZ DE IGNACIO DE LA LLAVE","193","Veracruz","0001","Veracruz","2106","004",,,,"Fijo","19.21046901","-96.14870838","2020-11"
"7771288","CONEXION 360","CONEXION 360 SA DE CV","488320","Servicios de carga y descarga para el transporte por agua","11 a 30 personas","CALLE","AGUSTIN YAÑEZ","CALLE","MORELOS NORTE","PRIVADA","INDEPENDENCIA","CALLE","SIN REFERENCIA",,"SN",,,,,"COLONIA","MANUEL CONTRERAS",,,,"91899","30","VERACRUZ DE IGNACIO DE LA LLAVE","193","Veracruz","0001","Veracruz","2623","033",,,,"Fijo","19.2060502","-96.14241197","2019-11"
"9327175","CONSTRUCTORA DE PLATAFORMAS MARITIMAS GRUPO R TERMINALES","GRUPO R TERMINALES SA DE CV","488310","Administración de puertos y muelles","11 a 30 personas","CALLE","PASO CIENTO SEIS","CALLE","CALLE A BENITO JUAREZ",,"SIN REFERENCIA",,"N/A","0","SN",,,,,"COLONIA","MATA REDONDA",,,,,"30","VERACRUZ DE IGNACIO DE LA LLAVE","133","Pueblo Viejo","0007","Hidalgo","0351","019",,"TERMINALES@GRUPOR.COM.MX","WWW.GRUPORTERMINALES.COM.MX","Fijo","22.22511524","-97.83506823","2020-11"
"9332057","CORPORACION INTEGRAL DE COMERCIO EXTERIOR SA DE CV","CORPORACION INTEGRAL DE COMERCIO EXTERIOR ","488320","Servicios de carga y descarga para el transporte por agua","31 a 50 personas","CALLE","CERVANTES Y PADILLA","CALLE","MORELOS NORTE","CALLE","INDEPENDENCIA NORTE","CALLE","AGUSTIN YAñEZ",,"SN",,,,,"COLONIA","MANUEL CONTRERAS",,,,"91899","30","VERACRUZ DE IGNACIO DE LA LLAVE","193","Veracruz","0001","Veracruz","2638","012",,,,"Fijo","19.20696842","-96.14291232","2020-11"
"6407958","CORPORACION PORTUARIA DE VERACRUZ","CORPORACION PORTUARIA DE VERACRUZ SA DE CV","488320","Servicios de carga y descarga para el transporte por agua","251 y más personas","CALLE","MANZANA I","CALLE","NINGUNO","PRIVADA","NINGUNO","CALLE","NINGUNO","0","SN",,,"1",,"ZONA INDUSTRIAL","DENTRO DEL RECINTO PORTUARIO","ZONA INDUSTRIAL","ZONA INDUSTRIAL PORTUARIA",,"91700","30","VERACRUZ DE IGNACIO DE LA LLAVE","193","Veracruz","0001","Veracruz","2106","015",,"MONTSERRAT.ARENAS@CSIGROUP.COM.MX","WWW.CSIGROUP.COM.MX","Fijo","19.21259483","-96.14600379","2010-07"
"9330454","CUARTEL DE BOMBEROS CREI","ADMINISTRACION PORTUARIA INTEGRAL DE VERACRUZ ","488310","Administración de puertos y muelles","31 a 50 personas","CALLE","NINGUNO","CALLE","NINGUNO","CALLE","NINGUNO","OTRO (ESPECIFIQUE)","N/A",,"SN",,,,,"COLONIA","CENTRO",,,,"91700","30","VERACRUZ DE IGNACIO DE LA LLAVE","193","Veracruz","0001","Veracruz","2106","019",,,,"Fijo","19.20972549","-96.14448573","2020-11"
"9333811","HUTCHISON PORTS AND LOGISTICS MEXICO","HUTCHISON PORTS AND LOGISTICS MEXICO SA DE CV","488310","Administración de puertos y muelles","11 a 30 personas","CALLE","MORELOS","CALLE","EMPARAN","CALLE","CONSTITUCIÓN","CALLE","EMPARAN","159",,,,,,"COLONIA","VERACRUZ CENTRO",,,,,"30","VERACRUZ DE IGNACIO DE LA LLAVE","193","Veracruz","0001","Veracruz","2623","026",,"DELGADO.RODRIGO@HUTCHISONLOGISTICS.COM.MX","WWW.HUTCHISONLOGISTICS.COM","Fijo","19.20248557","-96.13906937","2021-05"
"6412254","HUTCHISON PORTS ICAVE","INTERNACIONAL DE CONTENEDORES ASOCIADOS DE VERACRUZ SA DE CV","488320","Servicios de carga y descarga para el transporte por agua","101 a 250 personas","CALLE","JOSE MARIA MORELOS Y PAVON","CALLE","EMPARAN","CALLE","CONSTITUCIÓN","AVENIDA","INDEPENDENCIA","159",,,,"0",,"COLONIA","CENTRO",,,,"91700","30","VERACRUZ DE IGNACIO DE LA LLAVE","193","Veracruz","0001","Veracruz","2623","026",,"ALCALDE.JANET@ICAVE.COM.MX","WWW.HUTCHISONPORTSICAVE.COM","Fijo","19.20248106","-96.1390638","2010-07"
"6463037","HUTCHISON PORTS ICAVE","INTERNACIONAL DE CONTENEDORES ASOCIADOS DE VERACRUZ SA DE CV","488320","Servicios de carga y descarga para el transporte por agua","251 y más personas","AVENIDA","Ulua","CALLE","Ninguno","CALLE","Camino a San Juan de Ulúa","CALLE","Ninguno","0","SN",,,"0",,"OTRO (ESPECIFIQUE)","RECINTO PORTUARIO VERACRUZ",,,,"91800","30","VERACRUZ DE IGNACIO DE LA LLAVE","193","Veracruz","0001","Veracruz","2106","023",,"ALCALDE.JANET@ICAVE.COM.MX","WWW.HUTCHISONPORTSICAVE.COM","Fijo","19.21480636","-96.13183482","2014-12"
"8343593","LOGISTICA Y SERVICIOS MARITIMOS Y PORTUARIOS","LOGISTICA Y SERVICIOS MARITIMOS Y PORTUARIOS SA DE CV","488320","Servicios de carga y descarga para el transporte por agua","11 a 30 personas","CALLE","MARIO MOLINA","AVENIDA","FRANCISCO I. MADERO","AVENIDA","5 DE MAYO","CALLE","GUTIÉRREZ ZAMORA","383",,,,"202",,"COLONIA","VERACRUZ CENTRO",,,,"91700","30","VERACRUZ DE IGNACIO DE LA LLAVE","193","Veracruz","0001","Veracruz","0203","023","2299311514","MARITIMOSYPORTUARIOS@YAHOO.COM",,"Fijo","19.19844108","-96.13988196","2019-11"
"6498341","MUELLE DE OPERACIONES DE DESCARGA ATUNERA",,"488310","Administración de puertos y muelles","11 a 30 personas","BOULEVARD","LA CALZADA","CALLE","NINGUNO","CALLE","EL JOBO","CALLE","NINGUNO",,"SN",,,,,"COLONIA","LA CALZADA",,,,"92773","30","VERACRUZ DE IGNACIO DE LA LLAVE","189","Tuxpan","0001","Túxpam de Rodríguez Cano","1181","013",,"ENRIQUETORRIPESCA1@PRODIYI.NET.MX",,"Fijo","20.96303396","-97.33190073","2016-01"
"7415496","OPERADORA DE CARGA MARITIMA","OPERADORA DE CARGA MARITIMA SA DE CV","488320","Servicios de carga y descarga para el transporte por agua","6 a 10 personas","CALLE","EMPARAN","AVENIDA","MIGUEL HIDALGO","AVENIDA","FRANCISCO I. MADERO","CALLE","BENITO JUÁREZ","418",,,,,,"COLONIA","ZONA CENTRO",,,,"91700","30","VERACRUZ DE IGNACIO DE LA LLAVE","193","Veracruz","0001","Veracruz","2623","005",,,,"Fijo","19.20030438","-96.14231964","2019-11"
"9041212","PORTEO POZA RICA","ARECA SERVICIOS MULTUPLES SA DE CV","488310","Administración de puertos y muelles","6 a 10 personas","CALLE","PRIMERO DE MAYO","CALLE","IGNACIO ALLENDE","CALLE","COSTA RICA","CALLE","CRISTÓBAL COLÓN",,"SN",,,,,"COLONIA","27 DE SEPTIEMBRE",,,,"93320","30","VERACRUZ DE IGNACIO DE LA LLAVE","131","Poza Rica de Hidalgo","0001","Poza Rica de Hidalgo","0126","008",,,,"Fijo","20.53556368","-97.46803417","2019-11"
"6412478","TERMINALES DE CARGAS ESPECIALIZADAS","TERMINALES DE CARGAS ESPECIALIZADAS S","488320","Servicios de carga y descarga para el transporte por agua","101 a 250 personas","CALLE","MALECON","CALLE","NINGUNO","CALLE","NINGUNO","CALLE","NINGUNO","2",,,,"0","A","COLONIA","CENTRO",,,,"91700","30","VERACRUZ DE IGNACIO DE LA LLAVE","193","Veracruz","0001","Veracruz","2638","022",,"CELIA.AMADOR@ADM.COM",,"Fijo","19.20440649","-96.13882382","2010-07"
"6412468","UNION DE OBREROS ESTIBADORES CARGADORES ABRIDORES CHECADORES CLASIF Y JORNALEROS","UNIÓN DE OBREROS ESTIBADORES CARGADORES ABRIDORES CHECADORES CLASIF Y JORNALEROS SC DE RL DE CV","488320","Servicios de carga y descarga para el transporte por agua","251 y más personas","CALLE","CRISTÓBAL COLÓN","CALLE","XICOTÉNCATL","CALLE","Y GRIEGA SUR","CALLE","Y GRIEGA SUR","418",,,,"0",,"COLONIA","ESFUERZO DE LOS HERMANOS DEL TRABAJO",,,,"96400","30","VERACRUZ DE IGNACIO DE LA LLAVE","039","Coatzacoalcos","0001","Coatzacoalcos","099A","029",,,,"Fijo","18.14139982","-94.41310762","2010-07"
"9322729","VIVERO DE LA ADMINISTRACION PORTUARIA INTEGRAL DE VERACRUZ","ADMINISTRACION PORTUARIA  INTEGRAL DE VERACRUZ ","488310","Administración de puertos y muelles","31 a 50 personas","BOULEVARD","FIDEL VELAZQUEZ","CALLE","NINGUNO","CALLE","NINGUNO","OTRO (ESPECIFIQUE)","N/A",,"SN",,,,,"COLONIA","CENTRO",,,,"91700","30","VERACRUZ DE IGNACIO DE LA LLAVE","193","Veracruz","0001","Veracruz","2106","011",,,,"Fijo","19.21330684","-96.16198121","2020-11"
"4593366","ADMINISTRACION PORTUARIA INTEGRAL DE PROGRESO","ADMINISTRACION PORTUARIA INTEGRAL DE PROGRESO SA DE CV","488310","Administración de puertos y muelles","51 a 100 personas","CALLE","82","CALLE","25","CALLE","SIN REFERENCIA","CALLE","SIN REFERENCIA","0","SN",,,"0",,"LOCALIDAD","PROGRESO",,,,"97320","31","YUCATÁN       ","059","Progreso","0001","Progreso","0465","008",,"JDRHUMANOS@PUERTOSYUCATAN.COM","WWW.PUERTOSYUCATAN.COM","Fijo","21.28811446","-89.66486272","2010-07"
"8335726","CAPITANIA DE PUERTO","SECRETARIA DE MARINA CAPITANIA DE PUERTO ","488310","Administración de puertos y muelles","51 a 100 personas","CALLE","78","CALLE","37","CALLE","39","CALLE","74",,"SN",,,,,"COLONIA","FRANCISCO I MADERO",,,,"97320","31","YUCATÁN       ","059","Progreso","0001","Progreso","0499","017",,"PROGRESO@SEMAR.GOB.MX",,"Fijo","21.27962577","-89.66153991","2019-11"
"6280109","MULTISUR","MULTISUR SA DE CV","488320","Servicios de carga y descarga para el transporte por agua","51 a 100 personas","CALLE","NINGUNO","CALLE","NINGUNO","CALLE","NINGUNO","CALLE","NINGUNO","0","SN",,,"0",,"COLONIA","CENTRO",,,,"97320","31","YUCATÁN       ","059","Progreso","0001","Progreso","0821","001",,"CARLOS.GARCES@LOGRA.COM.MX",,"Fijo","21.34606211","-89.67183765","2010-07"
"6280194","MULTISUR","MULTISUR SA DE CV","488320","Servicios de carga y descarga para el transporte por agua","11 a 30 personas","CALLE","25","CALLE","74","CALLE","72","CALLE","23","147",,,,"0",,"COLONIA","CENTRO",,,,"97320","31","YUCATÁN       ","059","Progreso","0001","Progreso","0484","008",,"CARLOS.GARCES@LOGRA.COM.MX",,"Fijo","21.28662941","-89.65991339","2010-07"
